{
   "business_status": "OPERATIONAL",
   "geometry": {
      "location": {
         "lat": 1.5073818,
         "lng": 103.5123052
      },
      "viewport": {
         "northeast": {
            "lat": 1.508719880291502,
            "lng": 103.5136513802915
         },
         "southwest": {
            "lat": 1.506021919708498,
            "lng": 103.5109534197085
         }
      }
   },
   "icon": "https://maps.gstatic.com/mapfiles/place_api/icons/cafe-71.png",
   "id": "471763004ba71c8de8b6f28753af55d042d0b953",
   "name": "永昇茶餐室",
   "opening_hours": {
      "open_now": true
   },
   "photos": [
      {
         "height": 4160,
         "html_attributions": [
            "\u003ca href=\"https://maps.google.com/maps/contrib/102656229243466089423\"\u003eleong david\u003c/a\u003e"
         ],
         "photo_reference": "CmRaAAAAgLScTyYHFbtvKqLBoOhvOlrXi8R0ZHTo0-UGyoefBM-QsOSIDratFxPIakwbKE7AWoAtE8aXWW-xYDKUhI-X5rdnbUX-JSUN2wemFWo1cf3e4yzbmd1xp8lJjQsilEaKEhAPgo-zxG2BlI5hgKN_p5_ZGhSzK6r0rj-hrKEx6E0hgCCaiMot1A",
         "width": 3120
      }
   ],
   "place_id": "ChIJnxIRhLCf0DERCL-TjYVEcgA",
   "plus_code": {
      "compound_code": "GG46+XW Pekan Nanas, Johor, Malaysia",
      "global_code": "6PH5GG46+XW"
   },
   "rating": 3.6,
   "reference": "ChIJnxIRhLCf0DERCL-TjYVEcgA",
   "scope": "GOOGLE",
   "types": [
      "cafe",
      "food",
      "point_of_interest",
      "establishment"
   ],
   "user_ratings_total": 7,
   "vicinity": "36, Lebuhraya Skudai - Pontian, Taman Sri Pekan Nenas, Pekan Nanas"
},
{
   "business_status": "OPERATIONAL",
   "geometry": {
      "location": {
         "lat": 1.5073419,
         "lng": 103.5122277
      },
      "viewport": {
         "northeast": {
            "lat": 1.508728780291502,
            "lng": 103.5135864802915
         },
         "southwest": {
            "lat": 1.506030819708498,
            "lng": 103.5108885197085
         }
      }
   },
   "icon": "https://maps.gstatic.com/mapfiles/place_api/icons/restaurant-71.png",
   "id": "8e29e0b5e019daea85190383c1242a0dc82de2d1",
   "name": "Thai Pacific Ocean Restaurant",
   "opening_hours": {
      "open_now": false
   },
   "photos": [
      {
         "height": 720,
         "html_attributions": [
            "\u003ca href=\"https://maps.google.com/maps/contrib/116636685868427457570\"\u003eRaymond Tan\u003c/a\u003e"
         ],
         "photo_reference": "CmRaAAAAQYKLvfxgROD3DG0rGCV-vFxaKqGsgOUaxYXKUui4aTfZF07HUmglqiPC69wq3fny8lWt0JyqtkqOUygV9mSlzzkgHY__tmFEozYHqeyjwHOGgAYRemkytXCGm0LwJFviEhDkTZ-5wRGwvQZrhjtkJW-SGhSJ7kmgw0bFZpQPqaI5Mn3nQ2ockw",
         "width": 1080
      }
   ],
   "place_id": "ChIJaxivLJ-f0DERRH2Qrddj8BQ",
   "plus_code": {
      "compound_code": "GG46+WV Pekan Nanas, Johor, Malaysia",
      "global_code": "6PH5GG46+WV"
   },
   "rating": 5,
   "reference": "ChIJaxivLJ-f0DERRH2Qrddj8BQ",
   "scope": "GOOGLE",
   "types": [
      "restaurant",
      "food",
      "point_of_interest",
      "establishment"
   ],
   "user_ratings_total": 1,
   "vicinity": "Esso, Pekan Nenas, Pekan Nanas"
},
{
   "business_status": "OPERATIONAL",
   "geometry": {
      "location": {
         "lat": 1.5080471,
         "lng": 103.5125607
      },
      "viewport": {
         "northeast": {
            "lat": 1.509429280291502,
            "lng": 103.5139187302915
         },
         "southwest": {
            "lat": 1.506731319708498,
            "lng": 103.5112207697085
         }
      }
   },
   "icon": "https://maps.gstatic.com/mapfiles/place_api/icons/shopping-71.png",
   "id": "3334cd848f3f6889efdc67ebfa065e9ac9cc0d32",
   "name": "Eastern tart",
   "place_id": "ChIJs3U3wv2f0DERJ6cWuSr2biA",
   "plus_code": {
      "compound_code": "GG57+62 Pekan Nanas, Johor, Malaysia",
      "global_code": "6PH5GG57+62"
   },
   "reference": "ChIJs3U3wv2f0DERJ6cWuSr2biA",
   "scope": "GOOGLE",
   "types": [
      "supermarket",
      "grocery_or_supermarket",
      "food",
      "point_of_interest",
      "store",
      "establishment"
   ],
   "vicinity": "Pekan Nanas"
},
{
   "business_status": "OPERATIONAL",
   "geometry": {
      "location": {
         "lat": 1.5074127,
         "lng": 103.5128923
      },
      "viewport": {
         "northeast": {
            "lat": 1.508729480291502,
            "lng": 103.5142329802915
         },
         "southwest": {
            "lat": 1.506031519708498,
            "lng": 103.5115350197085
         }
      }
   },
   "icon": "https://maps.gstatic.com/mapfiles/place_api/icons/cafe-71.png",
   "id": "ac6fcdedd7ee459d52e100a01c691ded8d9d6252",
   "name": "rest sha",
   "photos": [
      {
         "height": 720,
         "html_attributions": [
            "\u003ca href=\"https://maps.google.com/maps/contrib/109381624187848386349\"\u003eKimQin Lee\u003c/a\u003e"
         ],
         "photo_reference": "CmRaAAAAZEQQMhiRaKqRqUifhFQUC2JjsoljSa4OmbpFQxf-rcdi_njl1hZkjddL1XhDVyi__kMpXl4Xf9eUUI_IJcg367UWjO2iqIoOYCqop78hbn7suBpDVlrCDrU3AzqGwelAEhCW9kEbbMRSkcDWiZSA5Z1vGhQSABGKZPtMBgbSIt53S2PHKPnY5A",
         "width": 1280
      }
   ],
   "place_id": "ChIJcY7dm7Cf0DERi-FgQlPgeUA",
   "plus_code": {
      "compound_code": "GG47+X5 Pekan Nanas, Johor, Malaysia",
      "global_code": "6PH5GG47+X5"
   },
   "rating": 5,
   "reference": "ChIJcY7dm7Cf0DERi-FgQlPgeUA",
   "scope": "GOOGLE",
   "types": [
      "cafe",
      "food",
      "point_of_interest",
      "store",
      "establishment"
   ],
   "user_ratings_total": 3,
   "vicinity": "Jalan Besar, Pekan Nanas"
},
{
   "business_status": "OPERATIONAL",
   "geometry": {
      "location": {
         "lat": 1.5072483,
         "lng": 103.512197
      },
      "viewport": {
         "northeast": {
            "lat": 1.508609080291502,
            "lng": 103.5134992302915
         },
         "southwest": {
            "lat": 1.505911119708498,
            "lng": 103.5108012697085
         }
      }
   },
   "icon": "https://maps.gstatic.com/mapfiles/place_api/icons/restaurant-71.png",
   "id": "a48d9c7cfb15c535881cf2ae59fd3a51d4f9a591",
   "name": "Dongxing Bak Kut Teh 东兴肉骨茶",
   "opening_hours": {
      "open_now": false
   },
   "photos": [
      {
         "height": 4032,
         "html_attributions": [
            "\u003ca href=\"https://maps.google.com/maps/contrib/108247378101635365995\"\u003eKoh Hoa Wen\u003c/a\u003e"
         ],
         "photo_reference": "CmRaAAAAJgkJjVSibbxTA8M7guHOgnfCVECZNSpt3n28KHbT7Nyn0-bAeZlhlvsNG-2PJVwWAuO38PsHMEH7wxTLmOJ_-YCgb-WfWc6bq7IamXN0MMeflp9wnr-jcebYO_twvflYEhDObqAniXnDgbQgxOWIx5vZGhTohHLwnfGdYCFCjVgu42MUdKQwuw",
         "width": 3024
      }
   ],
   "place_id": "ChIJe5xogbCf0DERe5dcSbZcB44",
   "plus_code": {
      "compound_code": "GG46+VV Pekan Nanas, Johor, Malaysia",
      "global_code": "6PH5GG46+VV"
   },
   "rating": 4.3,
   "reference": "ChIJe5xogbCf0DERe5dcSbZcB44",
   "scope": "GOOGLE",
   "types": [
      "restaurant",
      "food",
      "point_of_interest",
      "establishment"
   ],
   "user_ratings_total": 47,
   "vicinity": "Lorong A-9, Taman Sri Pekan Nenas, Pekan Nanas"
},
{
   "business_status": "OPERATIONAL",
   "geometry": {
      "location": {
         "lat": 1.5071847,
         "lng": 103.5122991
      },
      "viewport": {
         "northeast": {
            "lat": 1.508559480291502,
            "lng": 103.5135457802915
         },
         "southwest": {
            "lat": 1.505861519708498,
            "lng": 103.5108478197085
         }
      }
   },
   "icon": "https://maps.gstatic.com/mapfiles/place_api/icons/restaurant-71.png",
   "id": "95a9ac511713b8f26cfacd07d873f7afc9189745",
   "name": "Tong Heng",
   "opening_hours": {
      "open_now": false
   },
   "photos": [
      {
         "height": 1920,
         "html_attributions": [
            "\u003ca href=\"https://maps.google.com/maps/contrib/106404105109508925518\"\u003eu only\u003c/a\u003e"
         ],
         "photo_reference": "CmRaAAAA8Ajz4rRrHsD6sDe9bIRh81bvzWj8iRpdqsfJdIRAH8FCwXpd6oR_4x6pRV4qDKfiWei50_tze9qYrw-w4tym5MLvyMuxRNLEE133HhzsokShFa5zwU9s2OdCx0sZowShEhAEBqSV6vZ0f-UCRWAOZhRsGhSuT0aKM7lBX_wcUQgbu6-MFLMKGA",
         "width": 2560
      }
   ],
   "place_id": "ChIJnTU5h7Cf0DERuzFMS7bQpKY",
   "plus_code": {
      "compound_code": "GG46+VW Pekan Nanas, Johor, Malaysia",
      "global_code": "6PH5GG46+VW"
   },
   "rating": 3.7,
   "reference": "ChIJnTU5h7Cf0DERuzFMS7bQpKY",
   "scope": "GOOGLE",
   "types": [
      "restaurant",
      "food",
      "point_of_interest",
      "establishment"
   ],
   "user_ratings_total": 3,
   "vicinity": "Jalan Besar, Pekan Nenas, Pekan Nanas"
},
{
   "business_status": "OPERATIONAL",
   "geometry": {
      "location": {
         "lat": 1.5080759,
         "lng": 103.5125633
      },
      "viewport": {
         "northeast": {
            "lat": 1.509433380291502,
            "lng": 103.5139145802915
         },
         "southwest": {
            "lat": 1.506735419708498,
            "lng": 103.5112166197085
         }
      }
   },
   "icon": "https://maps.gstatic.com/mapfiles/place_api/icons/restaurant-71.png",
   "id": "6483929f48c10cc55f3b35f2bccb495803a653fe",
   "name": "來记西刀鱼圆",
   "opening_hours": {
      "open_now": true
   },
   "photos": [
      {
         "height": 3968,
         "html_attributions": [
            "\u003ca href=\"https://maps.google.com/maps/contrib/111256130053329207385\"\u003eYong KJ\u003c/a\u003e"
         ],
         "photo_reference": "CmRaAAAA1LBph9QooWblnfg99thUYQr7oFiv2pukQU08sstgaiqmpstEErtSCOwnrGrGrRWzRKzHBMdDTXYlgGFZbc_O_kHS0q559l2Zc98IWSIZN3WMXeSuOGnk-kOUlOUDB9rcEhBuACP-QOxCBIWf3J35XUAjGhRuRYu0EJOdkqCvzSmXBiRKlDXM-Q",
         "width": 2976
      }
   ],
   "place_id": "ChIJ1TN4jbCf0DERDNziOhYAqiY",
   "plus_code": {
      "compound_code": "GG57+62 Pekan Nanas, Johor, Malaysia",
      "global_code": "6PH5GG57+62"
   },
   "price_level": 2,
   "rating": 3.9,
   "reference": "ChIJ1TN4jbCf0DERDNziOhYAqiY",
   "scope": "GOOGLE",
   "types": [
      "restaurant",
      "food",
      "point_of_interest",
      "establishment"
   ],
   "user_ratings_total": 42,
   "vicinity": "Pekan Nanas"
},
{
   "business_status": "OPERATIONAL",
   "geometry": {
      "location": {
         "lat": 1.5071354,
         "lng": 103.5124413
      },
      "viewport": {
         "northeast": {
            "lat": 1.508593130291502,
            "lng": 103.5138184302915
         },
         "southwest": {
            "lat": 1.505895169708498,
            "lng": 103.5111204697085
         }
      }
   },
   "icon": "https://maps.gstatic.com/mapfiles/place_api/icons/restaurant-71.png",
   "id": "4304c6d17ee10757b3d96f049bf0dea4e07d2e6e",
   "name": "五星茶餐室",
   "opening_hours": {
      "open_now": false
   },
   "photos": [
      {
         "height": 2988,
         "html_attributions": [
            "\u003ca href=\"https://maps.google.com/maps/contrib/111364579794675426268\"\u003e陈劲琿\u003c/a\u003e"
         ],
         "photo_reference": "CmRaAAAAfSpYyksm66uw7PkAQCLvqzaz_w85V_YRzrFw1FkKnQaRVB1Uq1sQI2br-dBQ95Ynj89ZIQHX9Q-w6BdsBvAdAtmHPBRcAympuP2yCHGWtFVV1_uNnVDB1YvqzjwAO5hZEhCj_ZdYFHSDDaTt6AsnSeBmGhRbE2OF9Yqiym9tDhSB7bAQwwrGUw",
         "width": 5312
      }
   ],
   "place_id": "ChIJz8H2grCf0DERU2Df8XbwDg4",
   "plus_code": {
      "compound_code": "GG46+VX Pekan Nanas, Johor, Malaysia",
      "global_code": "6PH5GG46+VX"
   },
   "rating": 4,
   "reference": "ChIJz8H2grCf0DERU2Df8XbwDg4",
   "scope": "GOOGLE",
   "types": [
      "restaurant",
      "food",
      "point_of_interest",
      "establishment"
   ],
   "user_ratings_total": 2,
   "vicinity": "36, Lebuhraya Skudai - Pontian, Taman Sri Pekan Nenas, Pekan Nanas"
}