[
  {
    "business_status": "OPERATIONAL",
    "geometry": {
      "location": {
        "lat": 1.4855131,
        "lng": 103.3907783
      },
      "viewport": {
        "northeast": {
          "lat": 1.486856930291502,
          "lng": 103.3921293802915
        },
        "southwest": {
          "lat": 1.484158969708498,
          "lng": 103.3894314197085
        }
      }
    },
    "icon": "https://maps.gstatic.com/mapfiles/place_api/icons/shopping-71.png",
    "id": "c6a047cb01e2cd4986d4c8427485e2ef02da4d6d",
    "name": "7-Eleven @ Jalan Taib, Pontian",
    "opening_hours": {
      "open_now": true
    },
    "place_id": "ChIJiTzx5HCY0DERc7G8CVknaDQ",
    "plus_code": {
      "compound_code": "F9PR+68 Pontian District, Johor, Malaysia",
      "global_code": "6PH5F9PR+68"
    },
    "rating": 4.5,
    "reference": "ChIJiTzx5HCY0DERc7G8CVknaDQ",
    "scope": "GOOGLE",
    "types": [
      "convenience_store",
      "food",
      "point_of_interest",
      "store",
      "establishment"
    ],
    "user_ratings_total": 2,
    "vicinity": "No.692 (Gf), Jalan Taib, 82000, Pontian, Johor",
    "photo": "#"
  },
  {
    "business_status": "OPERATIONAL",
    "geometry": {
      "location": {
        "lat": 1.485401,
        "lng": 103.390833
      },
      "viewport": {
        "northeast": {
          "lat": 1.486709780291502,
          "lng": 103.3919530802915
        },
        "southwest": {
          "lat": 1.484011819708498,
          "lng": 103.3892551197085
        }
      }
    },
    "icon": "https://maps.gstatic.com/mapfiles/place_api/icons/restaurant-71.png",
    "id": "1878fa47564e66ce7884942cba1e603e7b4b15e2",
    "name": "KFC Pontian",
    "opening_hours": {
      "open_now": true
    },
    "photos": [
      {
        "height": 2128,
        "html_attributions": [
          "<a href=\"https://maps.google.com/maps/contrib/112307749407742588644\">Sam Leong</a>"
        ],
        "photo_reference": "CmRaAAAAWPjLlppzzcNjHaeEn56R-SpN0_wGSm_w9od10LWPdD_ts2SV3USA-EcP5a8rX1qfoFlRr4lAOU6pIIYMwWnR8TRPoYWSZYxMFjwdxS8wOhmGFtz3eHpFPRu5Tu3cAB4MEhB_Hj04gPI-YcXGkGulYEWSGhRzyr_dawGfIQPTdDz9QIBPi72sDg",
        "width": 4608
      }
    ],
    "place_id": "ChIJ0XIE3nCY0DERar8ygGN-NUI",
    "plus_code": {
      "compound_code": "F9PR+58 Pontian District, Johor, Malaysia",
      "global_code": "6PH5F9PR+58"
    },
    "price_level": 2,
    "rating": 4.2,
    "reference": "ChIJ0XIE3nCY0DERar8ygGN-NUI",
    "scope": "GOOGLE",
    "types": [
      "meal_delivery",
      "meal_takeaway",
      "restaurant",
      "food",
      "point_of_interest",
      "establishment"
    ],
    "user_ratings_total": 94,
    "vicinity": "668, Jalan Taib, Kampung Atap, Pontian",
    "photo": "/static/image/pontian/restaurant/KFCPontian-0.jpg"
  },
  {
    "geometry": {
      "location": {
        "lat": 1.485709,
        "lng": 103.389898
      },
      "viewport": {
        "northeast": {
          "lat": 1.490235,
          "lng": 103.3982258
        },
        "southwest": {
          "lat": 1.4789619,
          "lng": 103.3859001
        }
      }
    },
    "icon": "https://maps.gstatic.com/mapfiles/place_api/icons/geocode-71.png",
    "id": "4d62e9c279a54e3822a3df25e11be40d5f2acf11",
    "name": "Kampung Atap",
    "place_id": "ChIJKZVutnCY0DERPfG43iHGBpI",
    "reference": "ChIJKZVutnCY0DERPfG43iHGBpI",
    "scope": "GOOGLE",
    "types": [
      "sublocality_level_1",
      "sublocality",
      "political"
    ],
    "vicinity": "Kampung Atap",
    "photo": "#"
  },
  {
    "business_status": "OPERATIONAL",
    "geometry": {
      "location": {
        "lat": 1.4854752,
        "lng": 103.3909114
      },
      "viewport": {
        "northeast": {
          "lat": 1.486839930291502,
          "lng": 103.3922538802915
        },
        "southwest": {
          "lat": 1.484141969708498,
          "lng": 103.3895559197085
        }
      }
    },
    "icon": "https://maps.gstatic.com/mapfiles/place_api/icons/restaurant-71.png",
    "id": "6e6f346035c331ef814a142912f0416998c69efe",
    "name": "KFC Pontian Drive-Thru",
    "opening_hours": {
      "open_now": true
    },
    "photos": [
      {
        "height": 3120,
        "html_attributions": [
          "<a href=\"https://maps.google.com/maps/contrib/105239655029776564070\">Maria Iskandar</a>"
        ],
        "photo_reference": "CmRaAAAAnAsOl05eoX02OuIxbZ8lA8BVtxL5uSKaeNPhsLcobxjoCvPAKV6JsxFOPSDYmHVQD94LaFaiWq-rqCvEEluTcjhtLIKRaaBjGsewnxnZL6qvujxiACa5Q3bMGygKXTBGEhBYN2oMI49AZx1JUm0PDujiGhR9aVbDyWmzvBZoZ1gBvQWMeDpOfA",
        "width": 4160
      }
    ],
    "place_id": "ChIJ-yjkYHGY0DER9lZgkqQdTy0",
    "plus_code": {
      "compound_code": "F9PR+59 Pontian District, Johor, Malaysia",
      "global_code": "6PH5F9PR+59"
    },
    "price_level": 2,
    "rating": 4.1,
    "reference": "ChIJ-yjkYHGY0DER9lZgkqQdTy0",
    "scope": "GOOGLE",
    "types": [
      "meal_takeaway",
      "restaurant",
      "food",
      "point_of_interest",
      "establishment"
    ],
    "user_ratings_total": 25,
    "vicinity": "Lot 1088 - 1091 & 3279, Mukim Rimba Terjun 82000 Daerah Pontian, Pontian District",
    "photo": "/static/image/pontian/restaurant/KFCPontianDrive-Thru-0.jpg"
  },
  {
    "business_status": "OPERATIONAL",
    "geometry": {
      "location": {
        "lat": 1.485561,
        "lng": 103.3878589
      },
      "viewport": {
        "northeast": {
          "lat": 1.486910180291502,
          "lng": 103.3892085802915
        },
        "southwest": {
          "lat": 1.484212219708498,
          "lng": 103.3865106197085
        }
      }
    },
    "icon": "https://maps.gstatic.com/mapfiles/place_api/icons/restaurant-71.png",
    "id": "14f27bcc548b5621d9b03cabb24631657c7549d6",
    "name": "Asam Pedas Power Cik Yah",
    "opening_hours": {
      "open_now": true
    },
    "photos": [
      {
        "height": 960,
        "html_attributions": [
          "<a href=\"https://maps.google.com/maps/contrib/118043086743003938569\">mama. 3AQ</a>"
        ],
        "photo_reference": "CmRaAAAAouvkqXVvHyAoK2oZ1GxnbgYSSt1ocZOu4FD0NS7xqZiKupLzgLfjSLfVsQJQ4S6MZSG1W8bN_c-khn743sZ3EutbqjlQnAOczXFAZU6elZfku9X5WF71TbwVgRJVXkAqEhBpJML-nZeNYYHvtvGt1sKqGhS01nHJECye2s1I3tXrlbYO9EyUOQ",
        "width": 720
      }
    ],
    "place_id": "ChIJ5SjkYHGY0DERKPDVN1XVcBU",
    "plus_code": {
      "compound_code": "F9PQ+64 Pontian District, Johor, Malaysia",
      "global_code": "6PH5F9PQ+64"
    },
    "rating": 5,
    "reference": "ChIJ5SjkYHGY0DERKPDVN1XVcBU",
    "scope": "GOOGLE",
    "types": [
      "restaurant",
      "food",
      "point_of_interest",
      "establishment"
    ],
    "user_ratings_total": 1,
    "vicinity": "Depan Pejabat Belia jalan sri Aman, 82000, Pontian District",
    "photo": "/static/image/pontian/restaurant/AsamPedasPowerCikYah-0.jpg"
  },
  {
    "business_status": "OPERATIONAL",
    "geometry": {
      "location": {
        "lat": 1.485561,
        "lng": 103.3878589
      },
      "viewport": {
        "northeast": {
          "lat": 1.486910180291502,
          "lng": 103.3892085802915
        },
        "southwest": {
          "lat": 1.484212219708498,
          "lng": 103.3865106197085
        }
      }
    },
    "icon": "https://maps.gstatic.com/mapfiles/place_api/icons/restaurant-71.png",
    "id": "90718d7a467b8637ed7a19a48cf199a8be2cf5e5",
    "name": "Avolover",
    "place_id": "ChIJZ-UwGEOZ0DERDnxKQEkVDVY",
    "plus_code": {
      "compound_code": "F9PQ+64 Pontian District, Johor, Malaysia",
      "global_code": "6PH5F9PQ+64"
    },
    "rating": 1,
    "reference": "ChIJZ-UwGEOZ0DERDnxKQEkVDVY",
    "scope": "GOOGLE",
    "types": [
      "restaurant",
      "food",
      "point_of_interest",
      "establishment"
    ],
    "user_ratings_total": 1,
    "vicinity": "Pontian District",
    "photo": "#"
  },
  {
    "business_status": "OPERATIONAL",
    "geometry": {
      "location": {
        "lat": 1.4852413,
        "lng": 103.3876954
      },
      "viewport": {
        "northeast": {
          "lat": 1.486623480291502,
          "lng": 103.3891445302915
        },
        "southwest": {
          "lat": 1.483925519708498,
          "lng": 103.3864465697085
        }
      }
    },
    "icon": "https://maps.gstatic.com/mapfiles/place_api/icons/restaurant-71.png",
    "id": "75e865382a9af29fd7c86784decfa75929e604f3",
    "name": "Mee Rebus Abg Jen 49",
    "photos": [
      {
        "height": 2304,
        "html_attributions": [
          "<a href=\"https://maps.google.com/maps/contrib/104506621221841355223\">Mabubak Bubak</a>"
        ],
        "photo_reference": "CmRaAAAAJ44KBxVlJww3W1Bo3tgHbqhA56iZgi_MbMdUd3_zew0e6ULhBw_eCd3qwsPwifkGHyMYlSHLoBYxiQBTQ7_iRtBEp1KagjVmszE-6Bz41dhqLBD4TZL7zulTdDxrn983EhBJuLrkzzkkWEkUzrYGlfEFGhTk1RQ8TBezvFqz2kYuM7RprQkVfw",
        "width": 3047
      }
    ],
    "place_id": "ChIJO3ugVoyZ0DERzIXYEKstC6Y",
    "plus_code": {
      "compound_code": "F9PQ+33 Pontian District, Johor, Malaysia",
      "global_code": "6PH5F9PQ+33"
    },
    "reference": "ChIJO3ugVoyZ0DERzIXYEKstC6Y",
    "scope": "GOOGLE",
    "types": [
      "restaurant",
      "food",
      "point_of_interest",
      "establishment"
    ],
    "vicinity": "Kampung Atap, Pontian",
    "photo": "/static/image/pontian/restaurant/MeeRebusAbgJen49-0.jpg"
  },
  {
    "business_status": "OPERATIONAL",
    "geometry": {
      "location": {
        "lat": 1.4856367,
        "lng": 103.3882424
      },
      "viewport": {
        "northeast": {
          "lat": 1.487082580291502,
          "lng": 103.3895904802915
        },
        "southwest": {
          "lat": 1.484384619708498,
          "lng": 103.3868925197085
        }
      }
    },
    "icon": "https://maps.gstatic.com/mapfiles/place_api/icons/shopping-71.png",
    "id": "4b1c072d448eb9b7b740beeb038c26b2f276ef8a",
    "name": "Pasar Malam ( Isnin / Jumaat )",
    "place_id": "ChIJp3N3tM-Z0DER-hCjtGscy10",
    "plus_code": {
      "compound_code": "F9PQ+77 Pontian District, Johor, Malaysia",
      "global_code": "6PH5F9PQ+77"
    },
    "rating": 4,
    "reference": "ChIJp3N3tM-Z0DER-hCjtGscy10",
    "scope": "GOOGLE",
    "types": [
      "food",
      "point_of_interest",
      "establishment"
    ],
    "user_ratings_total": 1,
    "vicinity": "Jalan Pantai, Pontian",
    "photo": "#"
  },
  {
    "business_status": "OPERATIONAL",
    "geometry": {
      "location": {
        "lat": 1.4858956,
        "lng": 103.3875996
      },
      "viewport": {
        "northeast": {
          "lat": 1.487293630291502,
          "lng": 103.3889963302915
        },
        "southwest": {
          "lat": 1.484595669708498,
          "lng": 103.3862983697085
        }
      }
    },
    "icon": "https://maps.gstatic.com/mapfiles/place_api/icons/cafe-71.png",
    "id": "11f9d266cc837eb63354feabfb2994cfa8e5f5ae",
    "name": "Cendol POWER",
    "place_id": "ChIJeeF-2HOY0DERMZZw03s50lk",
    "plus_code": {
      "compound_code": "F9PQ+92 Pontian District, Johor, Malaysia",
      "global_code": "6PH5F9PQ+92"
    },
    "rating": 5,
    "reference": "ChIJeeF-2HOY0DERMZZw03s50lk",
    "scope": "GOOGLE",
    "types": [
      "cafe",
      "food",
      "point_of_interest",
      "establishment"
    ],
    "user_ratings_total": 2,
    "vicinity": "Kampung Atap, Pontian",
    "photo": "#"
  },
  {
    "business_status": "OPERATIONAL",
    "geometry": {
      "location": {
        "lat": 1.4859378,
        "lng": 103.3875305
      },
      "viewport": {
        "northeast": {
          "lat": 1.487342230291502,
          "lng": 103.3889334802915
        },
        "southwest": {
          "lat": 1.484644269708498,
          "lng": 103.3862355197085
        }
      }
    },
    "icon": "https://maps.gstatic.com/mapfiles/place_api/icons/restaurant-71.png",
    "id": "0cf1de6130310cfaa0da14690e59498b697e7397",
    "name": "Zali nasi ayam",
    "opening_hours": {
      "open_now": true
    },
    "photos": [
      {
        "height": 4032,
        "html_attributions": [
          "<a href=\"https://maps.google.com/maps/contrib/109921948024930250157\">Mohamad Ridzwan</a>"
        ],
        "photo_reference": "CmRZAAAApACbkbL5ZDSeZqbGQ91hz-b3Rwt52yf5yG_RYVyYCDriX4oarJi2fTUiLcEERgIresv_y0zQhTVA8PIgo6QJosVFkKiNnST1l1Aky-cE2TMUbt0z65laWYH2WG6acJjBEhCE9LO_Qq9abELFDk32F2HIGhSXLxgwuY75GJK6q9tMxvoWbbUCdg",
        "width": 3024
      }
    ],
    "place_id": "ChIJV4Zp2HOY0DERvl1_WHQWdY4",
    "plus_code": {
      "compound_code": "F9PQ+92 Pontian District, Johor, Malaysia",
      "global_code": "6PH5F9PQ+92"
    },
    "rating": 4.3,
    "reference": "ChIJV4Zp2HOY0DERvl1_WHQWdY4",
    "scope": "GOOGLE",
    "types": [
      "restaurant",
      "food",
      "point_of_interest",
      "establishment"
    ],
    "user_ratings_total": 4,
    "vicinity": "Jalan Pantai, Kampung Atap, Pontian",
    "photo": "/static/image/pontian/restaurant/Zalinasiayam-0.jpg"
  },
  {
    "business_status": "OPERATIONAL",
    "geometry": {
      "location": {
        "lat": 1.4859499,
        "lng": 103.3881853
      },
      "viewport": {
        "northeast": {
          "lat": 1.487238330291502,
          "lng": 103.3895361802915
        },
        "southwest": {
          "lat": 1.484540369708498,
          "lng": 103.3868382197085
        }
      }
    },
    "icon": "https://maps.gstatic.com/mapfiles/place_api/icons/cafe-71.png",
    "id": "d5e88a3c20f033d79d39cf8b2be32ee6b6cf062b",
    "name": "ngopi@pasarpeladang",
    "opening_hours": {
      "open_now": false
    },
    "photos": [
      {
        "height": 4208,
        "html_attributions": [
          "<a href=\"https://maps.google.com/maps/contrib/101358355090660785356\">Rahman Haron</a>"
        ],
        "photo_reference": "CmRaAAAA95W3gyS0sZMcXbLakiYn4xGe_2QMssVg99GGlWuwzlXBahIEwNDOeiwkF_MWa3_MyWFmlyYw9Ofe7VKghmSLNVWZSo9nXOtRFNADby2bQJE6_NinT2XgNFqJZhv6JouJEhAHgByCPOBIyzfeBau6dcqiGhQQP1ppiIKXEDUlo2e8u-JduSi40A",
        "width": 2368
      }
    ],
    "place_id": "ChIJ4Y4YZXGY0DER99jKkVv9LzA",
    "plus_code": {
      "compound_code": "F9PQ+97 Pontian District, Johor, Malaysia",
      "global_code": "6PH5F9PQ+97"
    },
    "reference": "ChIJ4Y4YZXGY0DER99jKkVv9LzA",
    "scope": "GOOGLE",
    "types": [
      "cafe",
      "food",
      "point_of_interest",
      "establishment"
    ],
    "vicinity": "Jalan Pantai, Kampung Atap, Pontian",
    "photo": "/static/image/pontian/restaurant/ngopi@pasarpeladang-0.jpg"
  },
  {
    "business_status": "OPERATIONAL",
    "geometry": {
      "location": {
        "lat": 1.4851505,
        "lng": 103.3882212
      },
      "viewport": {
        "northeast": {
          "lat": 1.486529030291502,
          "lng": 103.3895593802915
        },
        "southwest": {
          "lat": 1.483831069708498,
          "lng": 103.3868614197085
        }
      }
    },
    "icon": "https://maps.gstatic.com/mapfiles/place_api/icons/cafe-71.png",
    "id": "5276ddb3faede501f8fbcb9f3b2053327dec15a1",
    "name": "FZ Shisha",
    "photos": [
      {
        "height": 780,
        "html_attributions": [
          "<a href=\"https://maps.google.com/maps/contrib/116296544402290071461\">FZ Shisha</a>"
        ],
        "photo_reference": "CmRaAAAAqT1TOPolqMgCvthBcizUN_KoZ8JWy98_np-YHCJxMW8OKkENeNQn6EgeFQKaInSu9aZe4Ma6wi_hGcHr85tRMIeV5U7ne1zOAhMkcle9IxCsedIxDG7yjIKYbWnPYEaTEhDulkrPj5Ruuha4KCDmbKPZGhQ9Vb-CJRhChKnwht-lOHY6Y6W4dA",
        "width": 1040
      }
    ],
    "place_id": "ChIJj3ieXHGY0DER_fqGi4hbnqs",
    "plus_code": {
      "compound_code": "F9PQ+37 Pontian District, Johor, Malaysia",
      "global_code": "6PH5F9PQ+37"
    },
    "reference": "ChIJj3ieXHGY0DER_fqGi4hbnqs",
    "scope": "GOOGLE",
    "types": [
      "cafe",
      "food",
      "point_of_interest",
      "establishment"
    ],
    "vicinity": "Jalan Pantai, Kampung Atap, Pontian",
    "photo": "/static/image/pontian/restaurant/FZShisha-0.jpg"
  },
  {
    "business_status": "OPERATIONAL",
    "geometry": {
      "location": {
        "lat": 1.4850034,
        "lng": 103.3876468
      },
      "viewport": {
        "northeast": {
          "lat": 1.486444130291502,
          "lng": 103.3891427802915
        },
        "southwest": {
          "lat": 1.483746169708498,
          "lng": 103.3864448197085
        }
      }
    },
    "icon": "https://maps.gstatic.com/mapfiles/place_api/icons/restaurant-71.png",
    "id": "8067cc349d29cc6d92e52bafa11f81467b3f8450",
    "name": "Pak Yusoff Traditional",
    "opening_hours": {
      "open_now": false
    },
    "photos": [
      {
        "height": 1960,
        "html_attributions": [
          "<a href=\"https://maps.google.com/maps/contrib/114454784137064924520\">Nasha As</a>"
        ],
        "photo_reference": "CmRaAAAAyZb1m6Oesrurc6WH0TashrllQ61A2UQ1deM-LfCrGN4uDAeXzbonv5SNGVkPc_LvYyt-IP9r7YhkgGckCD0uZ-CL2qj8y0jaa9nUem1z7vybWO22FMd5GDogJ208TPAEEhAhh7RqsrUw6a8oJKgMl7vtGhTOqSoZRVcnfYgB2FgwJqmR-2s6gA",
        "width": 4032
      }
    ],
    "place_id": "ChIJK5-HWHGY0DERNB1qK9iyeKk",
    "plus_code": {
      "compound_code": "F9PQ+23 Pontian District, Johor, Malaysia",
      "global_code": "6PH5F9PQ+23"
    },
    "rating": 4.3,
    "reference": "ChIJK5-HWHGY0DERNB1qK9iyeKk",
    "scope": "GOOGLE",
    "types": [
      "restaurant",
      "food",
      "point_of_interest",
      "establishment"
    ],
    "user_ratings_total": 3,
    "vicinity": "Blok E, No. 4,, Jalan Dewan, Pontian",
    "photo": "/static/image/pontian/restaurant/PakYusoffTraditional-0.jpg"
  },
  {
    "business_status": "OPERATIONAL",
    "geometry": {
      "location": {
        "lat": 1.4862109,
        "lng": 103.3878507
      },
      "viewport": {
        "northeast": {
          "lat": 1.487465230291502,
          "lng": 103.3891075302915
        },
        "southwest": {
          "lat": 1.484767269708498,
          "lng": 103.3864095697085
        }
      }
    },
    "icon": "https://maps.gstatic.com/mapfiles/place_api/icons/restaurant-71.png",
    "id": "438e2a7b7420b5966077a063f9b9dd6cfffb8629",
    "name": "Murtabak Hamid",
    "opening_hours": {
      "open_now": false
    },
    "photos": [
      {
        "height": 4032,
        "html_attributions": [
          "<a href=\"https://maps.google.com/maps/contrib/103836584814362807149\">hilal zainudin</a>"
        ],
        "photo_reference": "CmRaAAAAJEnFQiKkK_8jh9cUftNra_EBQTdah3VPvQOnLNaHx_ZG7FQozvR1aA70DABVYvHhmgWw8e3eaZ0uRrShqzT6Obq4wm7ZpOA5EBSNCiknagPwtVtfSyjw2n50XxCqqIDgEhAwcBvsfemm3hth2YHBRiRIGhT0m5wgrVm9k90PSuVgEly4agepSQ",
        "width": 3016
      }
    ],
    "place_id": "ChIJh2GqgRqZ0DER7PA3gKWufe4",
    "plus_code": {
      "compound_code": "F9PQ+F4 Pontian District, Johor, Malaysia",
      "global_code": "6PH5F9PQ+F4"
    },
    "rating": 4,
    "reference": "ChIJh2GqgRqZ0DER7PA3gKWufe4",
    "scope": "GOOGLE",
    "types": [
      "restaurant",
      "food",
      "point_of_interest",
      "establishment"
    ],
    "user_ratings_total": 1,
    "vicinity": "Kampung Atap, Pontian",
    "photo": "/static/image/pontian/restaurant/MurtabakHamid-0.jpg"
  },
  {
    "business_status": "OPERATIONAL",
    "geometry": {
      "location": {
        "lat": 1.4847976,
        "lng": 103.3875375
      },
      "viewport": {
        "northeast": {
          "lat": 1.486318130291502,
          "lng": 103.3891018802915
        },
        "southwest": {
          "lat": 1.483620169708498,
          "lng": 103.3864039197085
        }
      }
    },
    "icon": "https://maps.gstatic.com/mapfiles/place_api/icons/restaurant-71.png",
    "id": "8419ae6876c14e8e6f0051cb8f2f098f957efd96",
    "name": "Kedai Makan Top Pop",
    "photos": [
      {
        "height": 405,
        "html_attributions": [
          "<a href=\"https://maps.google.com/maps/contrib/117071379444508294246\">Galaxy Galaxy</a>"
        ],
        "photo_reference": "CmRaAAAAfb6_hZ55ED2c1gGCfB_xyUDVQIa8Y_8WDpKx16lxR7zLKGHFRskDF-9uohfrklov0ZJnlfyR7ogTJ9bMINa3odsRXX2pi4iJXaLuey3xkNX1mhN_KnYyMspv2IggRkHjEhBOiSxmj5Gozzd-Ac5GwGfBGhRLoPIrRo7iHYrbXkEkFVUGHDuA4w",
        "width": 720
      }
    ],
    "place_id": "ChIJK8tG_XOY0DERcoYKYd_nTu8",
    "plus_code": {
      "compound_code": "F9MQ+W2 Pontian District, Johor, Malaysia",
      "global_code": "6PH5F9MQ+W2"
    },
    "rating": 4,
    "reference": "ChIJK8tG_XOY0DERcoYKYd_nTu8",
    "scope": "GOOGLE",
    "types": [
      "restaurant",
      "food",
      "point_of_interest",
      "establishment"
    ],
    "user_ratings_total": 9,
    "vicinity": "Kampung Atap, Pontian",
    "photo": "/static/image/pontian/restaurant/KedaiMakanTopPop-0.jpg"
  },
  {
    "business_status": "OPERATIONAL",
    "geometry": {
      "location": {
        "lat": 1.4791112,
        "lng": 103.3898838
      },
      "viewport": {
        "northeast": {
          "lat": 1.480426629892722,
          "lng": 103.3911376798927
        },
        "southwest": {
          "lat": 1.477726970107278,
          "lng": 103.3884380201073
        }
      }
    },
    "icon": "https://maps.gstatic.com/mapfiles/place_api/icons/restaurant-71.png",
    "id": "1dfff219e0cf442182fbdd8b7122c359801fde8e",
    "name": "Jia Xiang Vegetarian Food\u5bb6\u9999\u64c2\u8336\u7d20\u98df",
    "place_id": "ChIJQ1_Kly6j0DERMSGCLdjoDvs",
    "plus_code": {
      "compound_code": "F9HQ+JX Pontian District, Johor",
      "global_code": "6PH5F9HQ+JX"
    },
    "rating": 5,
    "reference": "ChIJQ1_Kly6j0DERMSGCLdjoDvs",
    "scope": "GOOGLE",
    "types": [
      "restaurant",
      "food",
      "point_of_interest",
      "establishment"
    ],
    "user_ratings_total": 1,
    "vicinity": "No.3-G, Jalan Delima 1, Pusat Perdagangan Pontian, Pontian",
    "photo": "#"
  },
  {
    "business_status": "OPERATIONAL",
    "geometry": {
      "location": {
        "lat": 1.4795771,
        "lng": 103.387217
      },
      "viewport": {
        "northeast": {
          "lat": 1.480896079892722,
          "lng": 103.3885543798927
        },
        "southwest": {
          "lat": 1.478196420107278,
          "lng": 103.3858547201073
        }
      }
    },
    "icon": "https://maps.gstatic.com/mapfiles/place_api/icons/restaurant-71.png",
    "id": "9464cbf135c61726488536ec5b4b6ffdde924303",
    "name": "Marrybrown",
    "opening_hours": {
      "open_now": true
    },
    "photos": [
      {
        "height": 1080,
        "html_attributions": [
          "<a href=\"https://maps.google.com/maps/contrib/105193981954451438819\">Susanti Satiman</a>"
        ],
        "photo_reference": "CmRaAAAAcvTjr_G-WPGq-g1e3Nnc3LXvnJpKstJSgoBPqnPZeTW6LNFLU8vjy48i1bw0bJXzrNRsgw3LS9oBCpUSiz9AOd1h8OvihPNZT6u_gzkQAUEdDHemYjGdxmnnknu7TSMOEhAut8kycjJ6S0-vEfwZd3QjGhRes77pvZNxjipdF_Re3W0MidLApw",
        "width": 1920
      }
    ],
    "place_id": "ChIJA318op2i0DER6fe6U7nw3-M",
    "plus_code": {
      "compound_code": "F9HP+RV Pontian District, Johor",
      "global_code": "6PH5F9HP+RV"
    },
    "price_level": 2,
    "rating": 4.1,
    "reference": "ChIJA318op2i0DER6fe6U7nw3-M",
    "scope": "GOOGLE",
    "types": [
      "restaurant",
      "food",
      "point_of_interest",
      "establishment"
    ],
    "user_ratings_total": 193,
    "vicinity": "9, Jalan Delima, Pusat Perdagangan Pontian, Pontian",
    "photo": "/static/image/pontian/restaurant/Marrybrown-0.jpg"
  },
  {
    "business_status": "OPERATIONAL",
    "geometry": {
      "location": {
        "lat": 1.481192,
        "lng": 103.3848791
      },
      "viewport": {
        "northeast": {
          "lat": 1.482594029892722,
          "lng": 103.3862468298927
        },
        "southwest": {
          "lat": 1.479894370107278,
          "lng": 103.3835471701073
        }
      }
    },
    "icon": "https://maps.gstatic.com/mapfiles/place_api/icons/restaurant-71.png",
    "id": "c36a0d29685cc71cc7a2d56a599047d68949c628",
    "name": "\u5929\u53f0 Pontian Rooftop Restaurant",
    "opening_hours": {
      "open_now": false
    },
    "photos": [
      {
        "height": 1336,
        "html_attributions": [
          "<a href=\"https://maps.google.com/maps/contrib/108437126490243111160\">A Google User</a>"
        ],
        "photo_reference": "CmRaAAAAQEnJ0wy93AhDexhGp46QeILBM1Wz6WMeLTaJg9h-bLnzobq8Efw5vcMT-dPCWjHkJF04loEzn7OtzJqahqbVLDr7sk4KVQt15fLHudyME0ktLAGdarhaF8KQsUPQxaHgEhAE3joXwSVwNcHhZjgcY7HEGhSR6syoAwUQAFsTliJkH58mKjfgWg",
        "width": 1336
      }
    ],
    "place_id": "ChIJw8JJl52i0DER9ppAg-2DmwY",
    "plus_code": {
      "compound_code": "F9JM+FX Pontian District, Johor",
      "global_code": "6PH5F9JM+FX"
    },
    "rating": 4,
    "reference": "ChIJw8JJl52i0DER9ppAg-2DmwY",
    "scope": "GOOGLE",
    "types": [
      "restaurant",
      "food",
      "point_of_interest",
      "establishment"
    ],
    "user_ratings_total": 124,
    "vicinity": "1-2, Jalan Delima 13, Pusat Perdagangan Pontian, Pontian District",
    "photo": "/static/image/pontian/restaurant/\u5929\u53f0PontianRooftopRestaurant-0.jpg"
  },
  {
    "business_status": "OPERATIONAL",
    "geometry": {
      "location": {
        "lat": 1.4900607,
        "lng": 103.3912509
      },
      "viewport": {
        "northeast": {
          "lat": 1.491332579892722,
          "lng": 103.3924513798927
        },
        "southwest": {
          "lat": 1.488632920107278,
          "lng": 103.3897517201073
        }
      }
    },
    "icon": "https://maps.gstatic.com/mapfiles/place_api/icons/restaurant-71.png",
    "id": "57f9d96d43e22a1430d57579aa900c0f799214fe",
    "name": "Heng Heng Original Tomato Wanton Mee",
    "opening_hours": {
      "open_now": false
    },
    "photos": [
      {
        "height": 3024,
        "html_attributions": [
          "<a href=\"https://maps.google.com/maps/contrib/117012133077525865634\">A Google User</a>"
        ],
        "photo_reference": "CmRZAAAAFQhYitwMAohn6Vb-ksqIdybuIofCLGw03f5KcxVLY0Q0Y0Vt6U6wtlwD9W7_piL4VfnZum1TxJ92_Jh8HqRx_l-wTyaUToD5mSpEfafygf2M0hZ2Hd2-2n5XEOMHTKCCEhDiLRreBP40BZFgjoEnOlVZGhRQXbFhdAhdK7hnBNLahtf8bVm1dw",
        "width": 3024
      }
    ],
    "place_id": "ChIJbaQOx2-Y0DERvcbPAv7NBy4",
    "plus_code": {
      "compound_code": "F9RR+2G Pontian District, Johor",
      "global_code": "6PH5F9RR+2G"
    },
    "price_level": 2,
    "rating": 4,
    "reference": "ChIJbaQOx2-Y0DERvcbPAv7NBy4",
    "scope": "GOOGLE",
    "types": [
      "restaurant",
      "food",
      "point_of_interest",
      "establishment"
    ],
    "user_ratings_total": 365,
    "vicinity": "766, Lorong Anggerik, Kampung Parit Mesjid, Pontian",
    "photo": "/static/image/pontian/restaurant/HengHengOriginalTomatoWantonMee-0.jpg"
  },
  {
    "business_status": "OPERATIONAL",
    "geometry": {
      "location": {
        "lat": 1.4862017,
        "lng": 103.3909923
      },
      "viewport": {
        "northeast": {
          "lat": 1.487582179892722,
          "lng": 103.3923391798927
        },
        "southwest": {
          "lat": 1.484882520107278,
          "lng": 103.3896395201073
        }
      }
    },
    "icon": "https://maps.gstatic.com/mapfiles/place_api/icons/restaurant-71.png",
    "id": "96bc38f1536286f251e1113c2ca76d515446fbf0",
    "name": "Shangerila Chinese Restaurant - \u9999\u683c\u91cc\u62c9\u51b7\u6c14\u9152\u697c",
    "opening_hours": {
      "open_now": true
    },
    "photos": [
      {
        "height": 2647,
        "html_attributions": [
          "<a href=\"https://maps.google.com/maps/contrib/106215828509098284803\">Kel Bin</a>"
        ],
        "photo_reference": "CmRaAAAAiYcQ7akgRsT4X9mc4rdWr5FbfKZXC3ZOStzDlBJKGjAEbYyOmD4U54Oq6bvYdYDALg_q2WoGDS61A8EG6ufmGuqxDCNlEdmKOSxW5i2lXpZ5WQjlmRxdcJmE5u8puzJREhAqeWhMzvnwFkesiwaF8z9NGhTB-NxOWl60ue3ziqEN5KHZupPa7g",
        "width": 3924
      }
    ],
    "place_id": "ChIJn_k_-nCY0DER60TAV-KMElM",
    "plus_code": {
      "compound_code": "F9PR+F9 Pontian District, Johor",
      "global_code": "6PH5F9PR+F9"
    },
    "price_level": 2,
    "rating": 4,
    "reference": "ChIJn_k_-nCY0DER60TAV-KMElM",
    "scope": "GOOGLE",
    "types": [
      "restaurant",
      "food",
      "point_of_interest",
      "establishment"
    ],
    "user_ratings_total": 309,
    "vicinity": "No.720 & No.721, 1st & 2nd floor, Jalan Taib, Pontian",
    "photo": "/static/image/pontian/restaurant/ShangerilaChineseRestaurant-\u9999\u683c\u91cc\u62c9\u51b7\u6c14\u9152\u697c-0.jpg"
  },
  {
    "business_status": "OPERATIONAL",
    "geometry": {
      "location": {
        "lat": 1.4869711,
        "lng": 103.3923524
      },
      "viewport": {
        "northeast": {
          "lat": 1.488338129892722,
          "lng": 103.3937002798927
        },
        "southwest": {
          "lat": 1.485638470107278,
          "lng": 103.3910006201073
        }
      }
    },
    "icon": "https://maps.gstatic.com/mapfiles/place_api/icons/restaurant-71.png",
    "id": "64329993a660c20ceedfca97985fd6d4de64b01e",
    "name": "Cendol Boy",
    "opening_hours": {
      "open_now": true
    },
    "photos": [
      {
        "height": 4608,
        "html_attributions": [
          "<a href=\"https://maps.google.com/maps/contrib/114063723766615968198\">Parwathey Rajasvaran</a>"
        ],
        "photo_reference": "CmRaAAAAK1Mn6gJR-_YOW_jr-qNnzQQ8DmG_qD591NFOPyQLDhdtdHmm1n3_fhiNGvQOUywtdHyvSDfxyngz6tk4ejvb8fpprL0eiSG0n5RAu4L-PNF6yYHgknnHLh-393WaDRg9EhA5_-iIWSa_IBAEwJ_00u8cGhRClvRbZAiottbGhmts1mHE4NGbNw",
        "width": 3456
      }
    ],
    "place_id": "ChIJ88k8ZHCY0DERBWIpRv13knU",
    "plus_code": {
      "compound_code": "F9PR+QW Pontian District, Johor",
      "global_code": "6PH5F9PR+QW"
    },
    "rating": 4.2,
    "reference": "ChIJ88k8ZHCY0DERBWIpRv13knU",
    "scope": "GOOGLE",
    "types": [
      "restaurant",
      "food",
      "point_of_interest",
      "establishment"
    ],
    "user_ratings_total": 196,
    "vicinity": "Kampung Atap, Pontian District",
    "photo": "/static/image/pontian/restaurant/CendolBoy-0.jpg"
  },
  {
    "business_status": "OPERATIONAL",
    "geometry": {
      "location": {
        "lat": 1.479991,
        "lng": 103.3888116
      },
      "viewport": {
        "northeast": {
          "lat": 1.481323329892722,
          "lng": 103.3901031298927
        },
        "southwest": {
          "lat": 1.478623670107278,
          "lng": 103.3874034701073
        }
      }
    },
    "icon": "https://maps.gstatic.com/mapfiles/place_api/icons/restaurant-71.png",
    "id": "1bd9e4e244bcdc363b30e696da42398393ff4375",
    "name": "Kafe Rasa Ria Restaurant, Pontian, Johore.",
    "opening_hours": {
      "open_now": true
    },
    "photos": [
      {
        "height": 2160,
        "html_attributions": [
          "<a href=\"https://maps.google.com/maps/contrib/103181743839696927753\">Boneca&#39;s Rawk&#39;s</a>"
        ],
        "photo_reference": "CmRaAAAAApVPIFALGKqm6xv4fFWIBEslDuwEFNH3uClCudUXDRaw1yLTLuUczw2UdooGvo6ZX6mRE0GqvWAN9bcZnGkWwNjEHOEdUFLCneB1qziSKG4irWX_pGNcIiLlbJZh-7AUEhD3owyB9QxO6O60f6fRjJvsGhQPM1zZU1JPuD1VDbHhWTWNzfJyRQ",
        "width": 2880
      }
    ],
    "place_id": "ChIJA318op2i0DERVvwlkJUoR6E",
    "plus_code": {
      "compound_code": "F9HQ+XG Pontian District, Johor",
      "global_code": "6PH5F9HQ+XG"
    },
    "price_level": 2,
    "rating": 4,
    "reference": "ChIJA318op2i0DERVvwlkJUoR6E",
    "scope": "GOOGLE",
    "types": [
      "restaurant",
      "food",
      "point_of_interest",
      "establishment"
    ],
    "user_ratings_total": 398,
    "vicinity": "No.34, Jln Delima 2, Pusat Perdagangan Pontian, Pontian",
    "photo": "/static/image/pontian/restaurant/KafeRasaRiaRestaurant,Pontian,Johore.-0.jpg"
  },
  {
    "business_status": "OPERATIONAL",
    "geometry": {
      "location": {
        "lat": 1.4788988,
        "lng": 103.3888325
      },
      "viewport": {
        "northeast": {
          "lat": 1.480299279892722,
          "lng": 103.3901750298927
        },
        "southwest": {
          "lat": 1.477599620107278,
          "lng": 103.3874753701073
        }
      }
    },
    "icon": "https://maps.gstatic.com/mapfiles/place_api/icons/restaurant-71.png",
    "id": "7f55bf86003640a451d98bf09a0b1e1ffc2465ee",
    "name": "\u7b28\u73cd\u5c0f\u5a18\u60f9\u83dc\u9986 Pontian Baba Nonya Recipe",
    "opening_hours": {
      "open_now": true
    },
    "photos": [
      {
        "height": 720,
        "html_attributions": [
          "<a href=\"https://maps.google.com/maps/contrib/101040326063892712614\">Kenyon Chong</a>"
        ],
        "photo_reference": "CmRaAAAA6TOkseADgNnu65wUkcuYxsS1X7NqekBo7GTdXVjh27p5hYws7LmHhKXzeF3XZ-a5Ko2ZATKDW1pmJdT090GJaE1F-WVqkiiESSekpXOlldw72neNMRvpx4hlYi_q02DcEhDCH3Vom0nHgPW-CZenbBXDGhRU78-Cv4LZeWvrCKxhQIfeoZ_bvg",
        "width": 960
      }
    ],
    "place_id": "ChIJ83eP7Z2i0DER_Bs4a5Sc_ng",
    "plus_code": {
      "compound_code": "F9HQ+HG Pusat Perdagangan Pontian, Pontian District, Johor",
      "global_code": "6PH5F9HQ+HG"
    },
    "price_level": 2,
    "rating": 4.1,
    "reference": "ChIJ83eP7Z2i0DER_Bs4a5Sc_ng",
    "scope": "GOOGLE",
    "types": [
      "restaurant",
      "food",
      "point_of_interest",
      "establishment"
    ],
    "user_ratings_total": 60,
    "vicinity": "Pusat Perdagangan Pontian, Pontian Kecil",
    "photo": "/static/image/pontian/restaurant/\u7b28\u73cd\u5c0f\u5a18\u60f9\u83dc\u9986PontianBabaNonyaRecipe-0.jpg"
  },
  {
    "business_status": "OPERATIONAL",
    "geometry": {
      "location": {
        "lat": 1.4864484,
        "lng": 103.3930381
      },
      "viewport": {
        "northeast": {
          "lat": 1.487719179892722,
          "lng": 103.3944025798927
        },
        "southwest": {
          "lat": 1.485019520107278,
          "lng": 103.3917029201073
        }
      }
    },
    "icon": "https://maps.gstatic.com/mapfiles/place_api/icons/restaurant-71.png",
    "id": "d6f8275a7f63d1998349a43cd172df2f9860793d",
    "name": "Ah Poh [bak kut teh]",
    "opening_hours": {
      "open_now": true
    },
    "photos": [
      {
        "height": 2160,
        "html_attributions": [
          "<a href=\"https://maps.google.com/maps/contrib/107301070285258783270\">Poh Soh Lee</a>"
        ],
        "photo_reference": "CmRaAAAAy_JtKjhDIXdc1jzfnRB2uBXyQsxP16IRWMap5zSgRz5p4hg06UKnuZpc9x_2rD9c6UyQ41g-ltT9exe7X7jP8orDObBh6zheB-aTAqjCb_tWDEQVqr9GmDWl80oGxzkuEhA4m4B_f6-tPWegcfG12AcqGhRs5tl9qNd1pEaqX_L19oMoMduLFA",
        "width": 2160
      }
    ],
    "place_id": "ChIJtf7UgHCY0DERt8wY4XMcxG0",
    "plus_code": {
      "compound_code": "F9PV+H6 Pontian District, Johor",
      "global_code": "6PH5F9PV+H6"
    },
    "rating": 4.1,
    "reference": "ChIJtf7UgHCY0DERt8wY4XMcxG0",
    "scope": "GOOGLE",
    "types": [
      "restaurant",
      "food",
      "point_of_interest",
      "establishment"
    ],
    "user_ratings_total": 140,
    "vicinity": "3, Jalan Taib Utama, Kampung Atap, Pontian",
    "photo": "/static/image/pontian/restaurant/AhPoh[bakkutteh]-0.jpg"
  },
  {
    "business_status": "OPERATIONAL",
    "geometry": {
      "location": {
        "lat": 1.4857933,
        "lng": 103.3941968
      },
      "viewport": {
        "northeast": {
          "lat": 1.487165129892722,
          "lng": 103.3955573298927
        },
        "southwest": {
          "lat": 1.484465470107278,
          "lng": 103.3928576701073
        }
      }
    },
    "icon": "https://maps.gstatic.com/mapfiles/place_api/icons/restaurant-71.png",
    "id": "1306fd5e34706ee6ee1200e43a63ac55df8aeedc",
    "name": "\u53e4\u697c\u5c0f\u98df Kedai Makan Kurau",
    "opening_hours": {
      "open_now": true
    },
    "photos": [
      {
        "height": 768,
        "html_attributions": [
          "<a href=\"https://maps.google.com/maps/contrib/118051812079306631318\">Alan Siau</a>"
        ],
        "photo_reference": "CmRaAAAAly855b-oZV_RwjAbFpaBCY9hA31JROpBJuVaylFHMfZXl3YBHgJYQuzguyDfXjQIU8vdGqihr3NBlraEM4Nzjxkhf5LaSdQHHRWJBD26bSdX1XQMiBQylC7SDaOMAfVEEhALwjL80Cz5_xp7jba850VYGhSHtVP3yG8wB7t9kG8d9R0BiCI9Yg",
        "width": 1024
      }
    ],
    "place_id": "ChIJRU7XbnqY0DERtPKHlp0XW0A",
    "plus_code": {
      "compound_code": "F9PV+8M Pontian District, Johor",
      "global_code": "6PH5F9PV+8M"
    },
    "price_level": 1,
    "rating": 4,
    "reference": "ChIJRU7XbnqY0DERtPKHlp0XW0A",
    "scope": "GOOGLE",
    "types": [
      "restaurant",
      "food",
      "point_of_interest",
      "establishment"
    ],
    "user_ratings_total": 185,
    "vicinity": "490, Lorong Sepakat, Kampung Atap, Pontian",
    "photo": "/static/image/pontian/restaurant/\u53e4\u697c\u5c0f\u98dfKedaiMakanKurau-0.jpg"
  },
  {
    "business_status": "OPERATIONAL",
    "geometry": {
      "location": {
        "lat": 1.4796944,
        "lng": 103.3937756
      },
      "viewport": {
        "northeast": {
          "lat": 1.481137529892722,
          "lng": 103.3950968298927
        },
        "southwest": {
          "lat": 1.478437870107278,
          "lng": 103.3923971701073
        }
      }
    },
    "icon": "https://maps.gstatic.com/mapfiles/place_api/icons/restaurant-71.png",
    "id": "f99723513499c17356dddfccdb02d5f7e35fdf3f",
    "name": "Nasi kukus ayam dara resepi bonda",
    "opening_hours": {
      "open_now": false
    },
    "place_id": "ChIJzassAXiY0DER56P2li4CNPk",
    "plus_code": {
      "compound_code": "F9HV+VG Pontian District, Johor",
      "global_code": "6PH5F9HV+VG"
    },
    "rating": 0,
    "reference": "ChIJzassAXiY0DER56P2li4CNPk",
    "scope": "GOOGLE",
    "types": [
      "restaurant",
      "food",
      "point_of_interest",
      "establishment"
    ],
    "user_ratings_total": 0,
    "vicinity": "715-1 Batu 36 jalan johor, Pontian",
    "photo": "#"
  },
  {
    "business_status": "OPERATIONAL",
    "geometry": {
      "location": {
        "lat": 1.481908,
        "lng": 103.392677
      },
      "viewport": {
        "northeast": {
          "lat": 1.483248229892722,
          "lng": 103.3939956298927
        },
        "southwest": {
          "lat": 1.480548570107278,
          "lng": 103.3912959701073
        }
      }
    },
    "icon": "https://maps.gstatic.com/mapfiles/place_api/icons/restaurant-71.png",
    "id": "9afe8d437c2768294e54d8089cee4756fc6db04e",
    "name": "Yi Sheng Chicken Rice Pot \u5104\u52dd\u9b5a\u982d\u7c73\u7c89\u74e6\u7172\u96de\u98ef",
    "opening_hours": {
      "open_now": true
    },
    "photos": [
      {
        "height": 1920,
        "html_attributions": [
          "<a href=\"https://maps.google.com/maps/contrib/111364579794675426268\">\u9648\u52b2\u743f</a>"
        ],
        "photo_reference": "CmRaAAAAOwJgqsHwz2L9HjAkEGe9TBG3znRj_lNWhGWrc14Aat3xRdfdULSCFGLAw_6wWbOXDuYDUjvBDTtolEpsLg8mihxXTgDRSRuX7CjC9IRDbegiP8TFgFKbw0lBWV1crdCTEhBhceCU9U2cLTF5e44IoYoYGhShRqWvsrbBiXNzZAcqe_-xFpX4FA",
        "width": 1080
      }
    ],
    "place_id": "ChIJ5-MCeHeY0DERJtR25luFIIY",
    "plus_code": {
      "compound_code": "F9JV+Q3 Pontian District, Johor",
      "global_code": "6PH5F9JV+Q3"
    },
    "rating": 3.7,
    "reference": "ChIJ5-MCeHeY0DERJtR25luFIIY",
    "scope": "GOOGLE",
    "types": [
      "restaurant",
      "food",
      "point_of_interest",
      "establishment"
    ],
    "user_ratings_total": 30,
    "vicinity": "No. Taman Tahiti,, 884, Jalan Bakek, Pontian District",
    "photo": "/static/image/pontian/restaurant/YiShengChickenRicePot\u5104\u52dd\u9b5a\u982d\u7c73\u7c89\u74e6\u7172\u96de\u98ef-0.jpg"
  },
  {
    "business_status": "OPERATIONAL",
    "geometry": {
      "location": {
        "lat": 1.4825199,
        "lng": 103.3915149
      },
      "viewport": {
        "northeast": {
          "lat": 1.483850179892722,
          "lng": 103.3928180298927
        },
        "southwest": {
          "lat": 1.481150520107278,
          "lng": 103.3901183701073
        }
      }
    },
    "icon": "https://maps.gstatic.com/mapfiles/place_api/icons/restaurant-71.png",
    "id": "b9b6338d94bca76d7e5cff76e63c80d193a591b8",
    "name": "\u9648\u8bb0\u6d77\u9c9c\u716e\u7092",
    "opening_hours": {
      "open_now": false
    },
    "photos": [
      {
        "height": 1024,
        "html_attributions": [
          "<a href=\"https://maps.google.com/maps/contrib/104239453694520316064\">Sher Woei Foon</a>"
        ],
        "photo_reference": "CmRaAAAAmgNdQk63FjclJAcg7Eh6qBFRoihFB3j8pRHL9pgYBjayc6pSSOOtlkWGn5vd9ksYd1BEPJ5fUwxRev_3xAYd7Jha0JhzeyJmyx9sw12lik0b8xABclGBaf5-UBrw_SfvEhA4AKvig9WEE2MkIz-lW2YFGhTvyorhyfPLrm2LiZEr92UWXxfgRw",
        "width": 768
      }
    ],
    "place_id": "ChIJnyLDTYiZ0DERW6LNklSHhPg",
    "plus_code": {
      "compound_code": "F9MR+2J Pontian District, Johor",
      "global_code": "6PH5F9MR+2J"
    },
    "rating": 5,
    "reference": "ChIJnyLDTYiZ0DERW6LNklSHhPg",
    "scope": "GOOGLE",
    "types": [
      "restaurant",
      "food",
      "point_of_interest",
      "establishment"
    ],
    "user_ratings_total": 1,
    "vicinity": "14, Jln Bakek Jaya 2, Kampung Atap, Pontian",
    "photo": "/static/image/pontian/restaurant/\u9648\u8bb0\u6d77\u9c9c\u716e\u7092-0.jpg"
  },
  {
    "business_status": "OPERATIONAL",
    "geometry": {
      "location": {
        "lat": 1.4864935,
        "lng": 103.3918425
      },
      "viewport": {
        "northeast": {
          "lat": 1.487795929892722,
          "lng": 103.3930599298927
        },
        "southwest": {
          "lat": 1.485096270107278,
          "lng": 103.3903602701073
        }
      }
    },
    "icon": "https://maps.gstatic.com/mapfiles/place_api/icons/restaurant-71.png",
    "id": "0319acb1dda4ea17f407abfc115100f1869e3631",
    "name": "wonderful seafood",
    "opening_hours": {
      "open_now": true
    },
    "photos": [
      {
        "height": 2304,
        "html_attributions": [
          "<a href=\"https://maps.google.com/maps/contrib/105847270007472018662\">\u4f50\u3005\u6728\u9ece\u660e</a>"
        ],
        "photo_reference": "CmRaAAAAX260ExplJ8B_cqS1wRvn2N33e1Icc6Ws2aYtpSfdDX-FPCBdb6_AVmvM8j9mMnB36Bv8uPAo5oKmM4sTOwHWMBbplgAHCJZPrSsULe6GHV_4XXPT4qMO_GBmW9Wpr72rEhBBV6rZQMqJYBZPb27VAJvuGhTb-k-flJ4jLnFeucDCzUfmpwC7mg",
        "width": 4096
      }
    ],
    "place_id": "ChIJSfgW9XCY0DERv-Qf9kb9Ha4",
    "plus_code": {
      "compound_code": "F9PR+HP Pontian District, Johor",
      "global_code": "6PH5F9PR+HP"
    },
    "rating": 3.9,
    "reference": "ChIJSfgW9XCY0DERv-Qf9kb9Ha4",
    "scope": "GOOGLE",
    "types": [
      "restaurant",
      "food",
      "point_of_interest",
      "establishment"
    ],
    "user_ratings_total": 40,
    "vicinity": "1b, Jalan Teo Kang Sui Dalam, Kampung Atap, Pontian District",
    "photo": "/static/image/pontian/restaurant/wonderfulseafood-0.jpg"
  },
  {
    "business_status": "OPERATIONAL",
    "geometry": {
      "location": {
        "lat": 1.4862606,
        "lng": 103.3911548
      },
      "viewport": {
        "northeast": {
          "lat": 1.487643229892722,
          "lng": 103.3924907798927
        },
        "southwest": {
          "lat": 1.484943570107278,
          "lng": 103.3897911201073
        }
      }
    },
    "icon": "https://maps.gstatic.com/mapfiles/place_api/icons/restaurant-71.png",
    "id": "7a6dc33b6059307745492ea3c565ca93fa576403",
    "name": "Restoran Hai Kee",
    "opening_hours": {
      "open_now": true
    },
    "photos": [
      {
        "height": 2160,
        "html_attributions": [
          "<a href=\"https://maps.google.com/maps/contrib/109434407545627601391\">Kevin Ng</a>"
        ],
        "photo_reference": "CmRaAAAAFtOnANoso58jjYKyWJ4ddYQdxoOvKwRk0SUvy4zkRafdticVRKig5xPgqT1Gkuuk_oYiPm203M2lFfjxDTEqKKJmiem9tEBQqnyqTF62MykvVGf5l9jx7PwNw9oG_Z-gEhAPMkgtdj-ZFFN2buTtBLHfGhTUXEHwEjonCICCZy2HiPAvT_GE3Q",
        "width": 2880
      }
    ],
    "place_id": "ChIJ1coQ-nCY0DERKxwjqp7Cvxw",
    "plus_code": {
      "compound_code": "F9PR+GF Pontian District, Johor",
      "global_code": "6PH5F9PR+GF"
    },
    "rating": 5,
    "reference": "ChIJ1coQ-nCY0DERKxwjqp7Cvxw",
    "scope": "GOOGLE",
    "types": [
      "restaurant",
      "food",
      "point_of_interest",
      "establishment"
    ],
    "user_ratings_total": 3,
    "vicinity": "722, 723, Jalan Taib, Kampung Atap, Pontian District",
    "photo": "/static/image/pontian/restaurant/RestoranHaiKee-0.jpg"
  },
  {
    "business_status": "OPERATIONAL",
    "geometry": {
      "location": {
        "lat": 1.4885755,
        "lng": 103.388324
      },
      "viewport": {
        "northeast": {
          "lat": 1.489936529892722,
          "lng": 103.3897035298927
        },
        "southwest": {
          "lat": 1.487236870107278,
          "lng": 103.3870038701073
        }
      }
    },
    "icon": "https://maps.gstatic.com/mapfiles/place_api/icons/restaurant-71.png",
    "id": "71b7320d7614ad5610f3fcad9a3b1ed217dd4772",
    "name": "Domino's Pizza Restaurant, Pontian, Johore.",
    "opening_hours": {
      "open_now": true
    },
    "photos": [
      {
        "height": 3456,
        "html_attributions": [
          "<a href=\"https://maps.google.com/maps/contrib/107316758612819445771\">A Google User</a>"
        ],
        "photo_reference": "CmRaAAAAPJOa5DMjfVH8-raXte1XUaLmiTR7uU-SN2H2NB3zznpKTcesHaKTWVs6n6nU_5FAtUKkwoLKDvyoVFDBmbe3WHAPv0mfdj_Fxsyy7pbjTTUpt6EvSRTDakHT4lQzTP6lEhBncsL8nN0CxE2XzL6_TuhSGhQd76Y9wK9_i29sMuFeVpBf41yVyw",
        "width": 4608
      }
    ],
    "place_id": "ChIJEcx48HGY0DERq_edLR1F2Gw",
    "plus_code": {
      "compound_code": "F9QQ+C8 Pontian District, Johor",
      "global_code": "6PH5F9QQ+C8"
    },
    "price_level": 2,
    "rating": 4,
    "reference": "ChIJEcx48HGY0DERq_edLR1F2Gw",
    "scope": "GOOGLE",
    "types": [
      "meal_delivery",
      "restaurant",
      "food",
      "point_of_interest",
      "establishment"
    ],
    "user_ratings_total": 305,
    "vicinity": "No 704 & 706, Jln. Alsagoff, Bandar Pontian, Pontian District",
    "photo": "/static/image/pontian/restaurant/Domino'sPizzaRestaurant,Pontian,Johore.-0.jpg"
  },
  {
    "business_status": "OPERATIONAL",
    "geometry": {
      "location": {
        "lat": 1.483008,
        "lng": 103.392292
      },
      "viewport": {
        "northeast": {
          "lat": 1.484337429892722,
          "lng": 103.3935927798927
        },
        "southwest": {
          "lat": 1.481637770107278,
          "lng": 103.3908931201073
        }
      }
    },
    "icon": "https://maps.gstatic.com/mapfiles/place_api/icons/restaurant-71.png",
    "id": "03bbab1532fa3cfef6cb358e2d9807f6af977de7",
    "name": "Kedai Makan Lee Kee",
    "opening_hours": {
      "open_now": true
    },
    "photos": [
      {
        "height": 3120,
        "html_attributions": [
          "<a href=\"https://maps.google.com/maps/contrib/114022943905777267516\">Chee C.L.</a>"
        ],
        "photo_reference": "CmRaAAAAmBLOLmRj7spCDeWlm7RDaEZ4jMaWePrKYeZpPHVKNKfZa4p-gLHqmxLwhAJChGupkziNXyOBDilB89e7YKCVgOyaqynxcbSFjYUHkx6pwG1pcD3Aey44tfSR6VJCpzmzEhCD966Fq98q_b-BOobdGKkmGhS8uhIDNXYjJevNpZYVoXYFiaIbXg",
        "width": 4160
      }
    ],
    "place_id": "ChIJDU8caneY0DERYVl4D81U8PY",
    "plus_code": {
      "compound_code": "F9MR+6W Pontian District, Johor",
      "global_code": "6PH5F9MR+6W"
    },
    "price_level": 2,
    "rating": 3.9,
    "reference": "ChIJDU8caneY0DERYVl4D81U8PY",
    "scope": "GOOGLE",
    "types": [
      "restaurant",
      "food",
      "point_of_interest",
      "establishment"
    ],
    "user_ratings_total": 67,
    "vicinity": "1120, Jalan Bakek Jaya Utama, Kampung Atap, Pontian",
    "photo": "/static/image/pontian/restaurant/KedaiMakanLeeKee-0.jpg"
  },
  {
    "business_status": "OPERATIONAL",
    "geometry": {
      "location": {
        "lat": 1.4899628,
        "lng": 103.3906526
      },
      "viewport": {
        "northeast": {
          "lat": 1.491193729892722,
          "lng": 103.3917370798927
        },
        "southwest": {
          "lat": 1.488494070107278,
          "lng": 103.3890374201073
        }
      }
    },
    "icon": "https://maps.gstatic.com/mapfiles/place_api/icons/restaurant-71.png",
    "id": "00f9c199479873dd0dba21c12cdc24a57a9defa2",
    "name": "Eton's Corner",
    "photos": [
      {
        "height": 4032,
        "html_attributions": [
          "<a href=\"https://maps.google.com/maps/contrib/109921948024930250157\">wan spade</a>"
        ],
        "photo_reference": "CmRZAAAAt5bCpm0BtYFOyXUm-Ev2eJCgNsOGqshK_0dSkuXi4nYntzKReB9iZgxFQmwD624OXvaTcWus2A0su4DHMRrWHYYkG7mplGX6BxW2F906yYwxbUIKMWe9tPpVXoUfBntZEhC5DE2RSWEvpRxXKFOq84ulGhRGMce8LmQyeyRXX0pue-Y-d1lNGg",
        "width": 3024
      }
    ],
    "place_id": "ChIJl-b_eSmZ0DER12xsMgCgINg",
    "plus_code": {
      "compound_code": "F9QR+X7 Pontian District, Johor",
      "global_code": "6PH5F9QR+X7"
    },
    "rating": 4,
    "reference": "ChIJl-b_eSmZ0DER12xsMgCgINg",
    "scope": "GOOGLE",
    "types": [
      "restaurant",
      "food",
      "point_of_interest",
      "establishment"
    ],
    "user_ratings_total": 1,
    "vicinity": "1123, Jalan Umno, Kampung Dalam, Pontian",
    "photo": "/static/image/pontian/restaurant/Eton'sCorner-0.jpg"
  },
  {
    "business_status": "OPERATIONAL",
    "geometry": {
      "location": {
        "lat": 1.4820346,
        "lng": 103.3915848
      },
      "viewport": {
        "northeast": {
          "lat": 1.483384729892722,
          "lng": 103.3929347798927
        },
        "southwest": {
          "lat": 1.480685070107278,
          "lng": 103.3902351201073
        }
      }
    },
    "icon": "https://maps.gstatic.com/mapfiles/place_api/icons/restaurant-71.png",
    "id": "c06a254b814f3b1e16bba4fce60d3e32dbfe3014",
    "name": "MIN GUAN KOPITIAM \u6c11\u6e90\u8336\u9910\u98df",
    "opening_hours": {
      "open_now": true
    },
    "photos": [
      {
        "height": 4032,
        "html_attributions": [
          "<a href=\"https://maps.google.com/maps/contrib/110615832401434080758\">A Google User</a>"
        ],
        "photo_reference": "CmRaAAAAj7iqgEULitzaxQD1IQAURMD-vVQJ7Vp7Q-9WuVTLMwOpbzqCODRf8WpNAiyu2U1IARMj_rnwMp1HFPdGODhAT1R1ZxpUdLNVSK-CNjvfsnEQ6VWrZTSW0K16T-efI2coEhA1Ewm-lSQ8NG5BECiZ2LYbGhTuboQXMAHLtVMB0xu0uLcJRikJAA",
        "width": 3024
      }
    ],
    "place_id": "ChIJ0RHVC3eY0DERg1A2oER7Vq4",
    "plus_code": {
      "compound_code": "F9JR+RJ Pontian District, Johor",
      "global_code": "6PH5F9JR+RJ"
    },
    "rating": 4.4,
    "reference": "ChIJ0RHVC3eY0DERg1A2oER7Vq4",
    "scope": "GOOGLE",
    "types": [
      "restaurant",
      "food",
      "point_of_interest",
      "establishment"
    ],
    "user_ratings_total": 19,
    "vicinity": "82000, 813-818, Jln Bakek Jaya 2, Kampung Atap, Pontian",
    "photo": "/static/image/pontian/restaurant/MINGUANKOPITIAM\u6c11\u6e90\u8336\u9910\u98df-0.jpg"
  }
]